[
  {
    "name": "Sangam Ghat Air Monitor",
    "description": "Air quality sensor near Triveni Sangam",
    "sensor_type": "air_quality",
    "lat": 25.4244,
    "lng": 81.8842,
    "unit": "μg/m³",
    "baseline": 28,
    "variance": 12,
    "spike_value": 145,
    "entityKey": "0x1d42514aec11d795a08e2988377f4c946d408aeb4b0ab2d29613e606f0cb72e8",
    "calibration_key": "0x650a059d00b32cd858d0cc76e2a3268926a4208416036440f59fb3f3082d3e8d",
    "reading_count": 0
  },
  {
    "name": "Civil Lines Weather Station",
    "description": "Temperature sensor, rooftop Civil Lines",
    "sensor_type": "temperature",
    "lat": 25.4587,
    "lng": 81.8407,
    "unit": "°C",
    "baseline": 36,
    "variance": 3,
    "spike_value": 42,
    "entityKey": "0x18365ec094fc15f617b30b39fd64d06665e570ecb1553f8571954b135fbd5f9d",
    "calibration_key": "0x63a7a09ee53fd25ab2c43e6dc4a24d2231004fb1f458ab99f0ada27e6202b1b3",
    "reading_count": 0
  },
  {
    "name": "Naini Bridge Air Monitor",
    "description": "Air quality, high-traffic bridge approach",
    "sensor_type": "air_quality",
    "lat": 25.4017,
    "lng": 81.8792,
    "unit": "μg/m³",
    "baseline": 55,
    "variance": 20,
    "spike_value": 190,
    "entityKey": "0x23c8523166105776e0626af902e3b3cc1bae4aa7d167b3dd1f8e60680789b700",
    "calibration_key": "0xb5a64f2bac3a6cc2e5f5282486f095c978e1d66f1f94ceab0dd238097915a8d1",
    "reading_count": 0
  },
  {
    "name": "Allahabad University Soil Sensor",
    "description": "Soil moisture, campus botanical garden",
    "sensor_type": "soil",
    "lat": 25.4561,
    "lng": 81.843,
    "unit": "%RH",
    "baseline": 42,
    "variance": 8,
    "spike_value": 78,
    "entityKey": "0x43dfebe7989d872ffab9e19c2820e432df2b8e46a487ade784fca9d1f10d256d",
    "calibration_key": "0xed6173659f5569f52fb9c2b4408839cfe41d354beb22d01c4e05c11c8f31139c",
    "reading_count": 0
  },
  {
    "name": "George Town Energy Meter",
    "description": "Power consumption, commercial district",
    "sensor_type": "energy",
    "lat": 25.4482,
    "lng": 81.8503,
    "unit": "kWh",
    "baseline": 14.2,
    "variance": 4,
    "spike_value": 38,
    "entityKey": "0xe4d153da021ea6a045fad2babd21f71bacec55178fb80dd6f4f5c0cfec9a65e3",
    "calibration_key": "0x0c27d075985e456fa10353a46879d6e726913a36451db666586d4ea362ca6181",
    "reading_count": 0
  },
  {
    "name": "Phaphamau Air Monitor",
    "description": "Industrial zone air quality, north bank",
    "sensor_type": "air_quality",
    "lat": 25.4928,
    "lng": 81.8573,
    "unit": "μg/m³",
    "baseline": 72,
    "variance": 25,
    "spike_value": 220,
    "entityKey": "0x0d5fd5869c852ebed3689967f7c3956099ad2af5ba0c8251e54cdadceda8394f",
    "calibration_key": "0x53146807ad9348bd057f65aceb25a184765ce41cfbf92c8281d28fe5ea76915d",
    "reading_count": 0
  },
  {
    "name": "Rajapur Weather Node",
    "description": "Micro weather station, residential colony",
    "sensor_type": "weather",
    "lat": 25.435,
    "lng": 81.8233,
    "unit": "°C",
    "baseline": 34,
    "variance": 2,
    "spike_value": 41,
    "entityKey": "0x302863b7f4594561880b1989353851ccffb5f82db8a5ca92dda0418bad5c5d75",
    "calibration_key": "0xa3181ce2fb1f35b4331221346cd255b338aaf635956b99c48e7b8df8d6e0b05b",
    "reading_count": 0
  },
  {
    "name": "Katra Soil Monitor",
    "description": "Agricultural soil sensor, peri-urban area",
    "sensor_type": "soil",
    "lat": 25.468,
    "lng": 81.9123,
    "unit": "%RH",
    "baseline": 38,
    "variance": 10,
    "spike_value": 85,
    "entityKey": "0xb6a71d865984677533c29227146152e570edd96af5b93a0ff48f3c13c75bb54e",
    "calibration_key": "0x87259c281af957b94a60372eeb73a798d0378f756b61e7b78be271d7022f69a5",
    "reading_count": 0
  }
]